[{"sequence":1,"website":null,"address":"17 Rue Massenet Dbprod & Co 75116 Paris France","phone":null,"name":"Dbprod & Co","location":"48.85878,2.27872","id":"FR\/POI\/p0\/2468409","type":["company","services"]},{"sequence":2,"website":null,"address":"8 Rue Nicolo Nico & Co 75116 Paris France","phone":"+33142880725","name":"Nico & Co","location":"48.85844,2.28071","id":"FR\/POI\/p0\/2539815","type":["beauty salon","shop"]},{"sequence":3,"website":null,"address":"49 Rue de la Tour Albert & Co 75116 Paris France","phone":null,"name":"Albert & Co","location":"48.86047,2.2805","id":"FR\/POI\/p0\/2479726","type":["recycling shop","shop"]},{"sequence":4,"website":null,"address":"26 Rue des Marronniers Chalets & Co 75016 Paris France","phone":null,"name":"Chalets & Co","location":"48.85512,2.27555","id":"FR\/POI\/p0\/2536889","type":["real estate agents","shop"]},{"sequence":5,"website":null,"address":"71 Rue de Passy City Corp 75016 Paris France","phone":null,"name":"City Corp","location":"48.85792,2.27714","id":"FR\/POI\/p0\/2813368","type":["company","services"]},{"sequence":6,"website":null,"address":"15 Avenue Mozart Groupe Aco 75016 Paris France","phone":"+33142247161","name":"Groupe Aco","location":"48.85713,2.27287","id":"FR\/POI\/p0\/2536086","type":["jewelry, clocks watches","shop"]},{"sequence":7,"website":null,"address":"17 Avenue du Colonel Bonnet Thilou And Co 75016 Paris France","phone":null,"name":"Thilou And Co","location":"48.85579,2.27771","id":"FR\/POI\/p0\/2537818","type":["real estate agents","shop"]},{"sequence":8,"website":null,"address":"16 Rue Albéric Magnard Synd Cop 16 Rue Alberic Magnard Paris 16 75116 Paris France","phone":"+33145250521","name":"Synd Cop 16 Rue Alberic Magnard Paris 16","location":"48.86023,2.27141","id":"FR\/POI\/p0\/2535419","type":["real estate agents","shop"]},{"sequence":9,"website":null,"address":"23 Rue Raynouard Synd Des Co Proprietaires 75016 Paris France","phone":"+33145259755","name":"Synd Des Co Proprietaires","location":"48.85684,2.28274","id":"FR\/POI\/p0\/2541037","type":["real estate agents","shop"]},{"sequence":10,"website":null,"address":"39 Rue de l'Annonciation Syn Cop 39 Annonciation 75016 Paris France","phone":null,"name":"Syn Cop 39 Annonciation","location":"48.8573,2.27821","id":"FR\/POI\/p0\/2538395","type":["real estate agents","shop"]},{"sequence":11,"website":null,"address":"76 Avenue Paul Doumer Syn Cop 76 Paul Doumer 75116 Paris France","phone":null,"name":"Syn Cop 76 Paul Doumer","location":"48.85963,2.27817","id":"FR\/POI\/p0\/2538706","type":["real estate agents","shop"]},{"sequence":12,"website":null,"address":"1 Rue de Passy Esprit De Corp France Paris 75016 Paris France","phone":"+33146476600","name":"Esprit De Corp France Paris","location":"48.85774,2.27907","id":"FR\/POI\/p0\/1806188","type":["clothing accessories: general","shop"]},{"sequence":13,"website":null,"address":"11 Rue du Conseiller Collignon Synd Cop 11 Conseiller Collignon 75016 75116 Paris France","phone":null,"name":"Synd Cop 11 Conseiller Collignon 75016","location":"48.85944,2.27296","id":"FR\/POI\/p0\/2536019","type":["real estate agents","shop"]},{"sequence":14,"website":null,"address":"2 Rue Francisque Sarcey SYND COP 2 RUE FRANCISQUE SARCEY 75116 Paris France","phone":"+33145033099","name":"SYND COP 2 RUE FRANCISQUE SARCEY","location":"48.85965,2.28194","id":"FR\/POI\/p0\/2540508","type":["real estate agents","shop"]},{"sequence":15,"website":null,"address":"6 Rue Octave Feuillet Synd 6 Rue Octave Feuillet 75116 Paris France","phone":null,"name":"Synd 6 Rue Octave Feuillet","location":"48.86108,2.27307","id":"FR\/POI\/p0\/2536082","type":["real estate agents","shop"]},{"sequence":16,"website":null,"address":"16 Rue Jules Claretie Syn Cop 16 Rue Jules Claretie 75116 Paris France","phone":null,"name":"Syn Cop 16 Rue Jules Claretie","location":"48.8615,2.2738","id":"FR\/POI\/p0\/2536351","type":["real estate agents","shop"]},{"sequence":17,"website":null,"address":"40 Rue Vital SYND COP 40 RUE VITAL 75116 PARIS 75116 Paris France","phone":null,"name":"SYND COP 40 RUE VITAL 75116 PARIS","location":"48.85887,2.27805","id":"FR\/POI\/p0\/2538489","type":["real estate agents","shop"]},{"sequence":18,"website":null,"address":"15 Rue du Conseiller Collignon SYND.. DU 15 RUE DU CONSEILLER COL 75116 Paris France","phone":null,"name":"SYND.. DU 15 RUE DU CONSEILLER COL","location":"48.85923,2.27268","id":"FR\/POI\/p0\/2535908","type":["real estate agents","shop"]},{"sequence":19,"website":null,"address":"10 Avenue Mozart SYND COP 10 AV MOZART 75016 PARIS 75016 Paris France","phone":null,"name":"SYND COP 10 AV MOZART 75016 PARIS","location":"48.85747,2.27323","id":"FR\/POI\/p0\/2536208","type":["real estate agents","shop"]},{"sequence":20,"website":null,"address":"21 Rue de l'Annonciation SYND COP 21 RUE DE L' ANNONCIATION 75016 Paris France","phone":null,"name":"SYND COP 21 RUE DE L' ANNONCIATION","location":"48.85655,2.27938","id":"FR\/POI\/p0\/2539082","type":["real estate agents","shop"]},{"sequence":21,"website":null,"address":"15 Rue Chernoviz SYND COP 15 RUE CHERNOVIZ 75016 PARIS 75016 Paris France","phone":null,"name":"SYND COP 15 RUE CHERNOVIZ 75016 PARIS","location":"48.85787,2.28111","id":"FR\/POI\/p0\/2540010","type":["real estate agents","shop"]},{"sequence":22,"website":null,"address":"5 Rue Maspéro SYND COP 5 RUE MASPERO 75016 PARIS 75116 Paris France","phone":null,"name":"SYND COP 5 RUE MASPERO 75016 PARIS","location":"48.85977,2.27261","id":"FR\/POI\/p0\/2535885","type":["real estate agents","shop"]},{"sequence":23,"website":null,"address":"11 Rue de l'Annonciation Syn Cop 11 Rue De L'annonciation 75016 Paris France","phone":null,"name":"Syn Cop 11 Rue De L'annonciation","location":"48.85611,2.28004","id":"FR\/POI\/p0\/2539598","type":["real estate agents","shop"]},{"sequence":24,"website":null,"address":"104 Rue de la Tour Syn Cop 104 Rue De La Tour 75116 Paris France","phone":null,"name":"Syn Cop 104 Rue De La Tour","location":"48.86247,2.27712","id":"FR\/POI\/p0\/2537619","type":["real estate agents","shop"]},{"sequence":25,"website":null,"address":"3 Rue Jacques Offenbach SYND COP 3 RUE JACQUES OFFENBACH 75016 75016 Paris France","phone":null,"name":"SYND COP 3 RUE JACQUES OFFENBACH 75016","location":"48.85606,2.27242","id":"FR\/POI\/p0\/2535796","type":["real estate agents","shop"]},{"sequence":26,"website":null,"address":"5 Rue Antoine Arnauld SYND.. 5 RUE ANTOINE ARNAULD 75016 75016 Paris France","phone":"+33142881029","name":"SYND.. 5 RUE ANTOINE ARNAULD 75016","location":"48.85611,2.27195","id":"FR\/POI\/p0\/2535589","type":["real estate agents","shop"]},{"sequence":27,"website":null,"address":"14 Rue Raynouard SYND COP 14 RUE RAYNOUARD 75016 PARIS 75016 Paris France","phone":null,"name":"SYND COP 14 RUE RAYNOUARD 75016 PARIS","location":"48.85749,2.2834","id":"FR\/POI\/p0\/2541399","type":["real estate agents","shop"]},{"sequence":28,"website":null,"address":"5 Rue de la Pompe Syn Cop Du 5 Rue De La Pompe 75116 Paris France","phone":null,"name":"Syn Cop Du 5 Rue De La Pompe","location":"48.86022,2.27606","id":"FR\/POI\/p0\/2536563","type":["real estate agents","shop"]},{"sequence":29,"website":null,"address":"73 Avenue Paul Doumer SYND COP 73 AV PAUL DOUMER 75016 PARIS 75116 Paris France","phone":null,"name":"SYND COP 73 AV PAUL DOUMER 75016 PARIS","location":"48.85965,2.27876","id":"FR\/POI\/p0\/2538859","type":["real estate agents","shop"]},{"sequence":30,"website":null,"address":"4 Passage Singer Art & Art Arts & Arts Arts & Co 75016 Paris France","phone":"+33610686128","name":"Art & Art Arts & Arts Arts & Co","location":"48.85647,2.27579","id":"FR\/POI\/p0\/2182985","type":["recycling shop","shop"]},{"sequence":31,"website":null,"address":"32 Rue des Vignes SYND COP 32 RUE DES VIGNES 75016 PARIS 75016 Paris France","phone":"+33142248953","name":"SYND COP 32 RUE DES VIGNES 75016 PARIS","location":"48.85579,2.27603","id":"FR\/POI\/p0\/2537124","type":["real estate agents","shop"]},{"sequence":32,"website":null,"address":"35 Rue de Boulainvilliers S COP 35-37 RUE DE BOULAINVIL 75116 75016 Paris France","phone":null,"name":"S COP 35-37 RUE DE BOULAINVIL 75116","location":"48.85459,2.27536","id":"FR\/POI\/p0\/2536836","type":["real estate agents","shop"]}]