[{"sequence":1,"website":null,"address":"6 Chaussée de la Muette Tabac De La Muette 75016 Paris France","phone":"+33146475339","name":"Tabac De La Muette","location":"48.85824,2.27387","id":"FR\/POI\/p0\/3464817","type":["café\/pub"]},{"sequence":2,"website":"www.starbucks.fr\/","address":"53 Rue de Passy Passy Plaza 75016 Paris France","phone":"+33145244777","name":"Passy Plaza","location":"48.85761,2.27961","id":"FR\/POI\/p0\/3465646","type":["café\/pub","coffee shop"]},{"sequence":3,"website":"www.noodo.fr","address":"3 Rue Massenet Hôtel Best Western Trocadero La Tour 75116 Paris France","phone":"+33145244303","name":"Hôtel Best Western Trocadero La Tour","location":"48.85809,2.27993","id":"FR\/POI\/p0\/3465647","type":["café\/pub","internet café"]},{"sequence":4,"website":null,"address":"15 Rue Singer Le Diplomate 75016 Paris France","phone":null,"name":"Le Diplomate","location":"48.85619,2.27757","id":"FR\/POI\/p0\/3465640","type":["café","café\/pub"]},{"sequence":5,"website":null,"address":"10 Rue Jean Bologne Thé Cool 75016 Paris France","phone":"+33142246913","name":"Thé Cool","location":"48.85697,2.28048","id":"FR\/POI\/p0\/3465649","type":["café\/pub","tea house"]},{"sequence":6,"website":"www.restaurantlagare.com\/restaurant-cafe.php","address":"19 Chaussée de la Muette Le Café De La Gare 75016 Paris France","phone":"+33142151531","name":"Le Café De La Gare","location":"48.85816,2.27232","id":"FR\/POI\/p0\/3056269","type":["bar","nightlife"]}]