[{"sequence":1,"website":null,"address":"8 Rue Faustin HÃ©lie Domino's Pizza 75116 Paris France","phone":"+33145032323","name":"Domino's Pizza","location":"48.85951,2.27606","id":"FR\/POI\/p0\/2392329","type":["pizza","restaurant"]},{"sequence":2,"website":"www.pastaoro.com","address":"59 Rue de Boulainvilliers Pizza Oro 75016 Paris France","phone":"+33142307738","name":"Pizza Oro","location":"48.85751,2.27463","id":"FR\/POI\/p0\/3192145","type":["pizza","restaurant"]},{"sequence":3,"website":null,"address":"23 Rue de l'Annonciation La Matta 75016 Paris France","phone":"+33145278881","name":"La Matta","location":"48.85659,2.27935","id":"FR\/POI\/p0\/2155511","type":["pizza","restaurant"]},{"sequence":4,"website":"leciro.fr\/fr\/","address":"43 Rue de la Pompe Le Ciro 75116 Paris France","phone":"+33145030083","name":"Le Ciro","location":"48.86147,2.27547","id":"FR\/POI\/p0\/2380493","type":["pizza","restaurant"]},{"sequence":5,"website":null,"address":"12 Avenue Mozart Alba Ristorante 75016 Paris France","phone":"+33145276245","name":"Alba Ristorante","location":"48.85748,2.2731","id":"FR\/POI\/p0\/3471783","type":["pizza","restaurant"]},{"sequence":6,"website":"https:\/\/www.pizzahut.fr\/hut\/?sector=fr-1&id=7","address":"5 Rue de l'Annonciation Pizza Hut 75016 Paris France","phone":"+33142881818","name":"Pizza Hut","location":"48.85584,2.28047","id":"FR\/POI\/p0\/2149368","type":["pizza","restaurant"]}]